[
  {"iata": "Bend", "lat": 44.0582, "lon": -121.3153, "cca2": "US", "region": "North America", "city": "Bend"},
  {"iata": "RDM", "lat": 44.2541, "lon": -121.1500, "cca2": "US", "region": "North America", "city": "Redmond"},
  {"iata": "PDX", "lat": 45.5898, "lon": -122.5951, "cca2": "US", "region": "North America", "city": "Portland"},
  {"iata": "SEA", "lat": 47.4502, "lon": -122.3088, "cca2": "US", "region": "North America", "city": "Seattle"},
  {"iata": "SFO", "lat": 37.6213, "lon": -122.3790, "cca2": "US", "region": "North America", "city": "San Francisco"},
  {"iata": "LAX", "lat": 33.9425, "lon": -118.4081, "cca2": "US", "region": "North America", "city": "Los Angeles"},
  {"iata": "DEN", "lat": 39.8561, "lon": -104.6737, "cca2": "US", "region": "North America", "city": "Denver"},
  {"iata": "DFW", "lat": 32.8998, "lon": -97.0403, "cca2": "US", "region": "North America", "city": "Dallas"},
  {"iata": "ORD", "lat": 41.9742, "lon": -87.9073, "cca2": "US", "region": "North America", "city": "Chicago"},
  {"iata": "ATL", "lat": 33.6407, "lon": -84.4277, "cca2": "US", "region": "North America", "city": "Atlanta"},
  {"iata": "MIA", "lat": 25.7959, "lon": -80.2870, "cca2": "US", "region": "North America", "city": "Miami"},
  {"iata": "JFK", "lat": 40.6413, "lon": -73.7781, "cca2": "US", "region": "North America", "city": "New York"},
  {"iata": "IAD", "lat": 38.9531, "lon": -77.4565, "cca2": "US", "region": "North America", "city": "Washington DC"},
  {"iata": "BOS", "lat": 42.3656, "lon": -71.0096, "cca2": "US", "region": "North America", "city": "Boston"},
  {"iata": "YYZ", "lat": 43.6777, "lon": -79.6248, "cca2": "CA", "region": "North America", "city": "Toronto"},
  {"iata": "YVR", "lat": 49.1947, "lon": -123.1789, "cca2": "CA", "region": "North America", "city": "Vancouver"},
  {"iata": "LHR", "lat": 51.4700, "lon": -0.4543, "cca2": "GB", "region": "Europe", "city": "London"},
  {"iata": "CDG", "lat": 49.0097, "lon": 2.5479, "cca2": "FR", "region": "Europe", "city": "Paris"},
  {"iata": "FRA", "lat": 50.0379, "lon": 8.5622, "cca2": "DE", "region": "Europe", "city": "Frankfurt"},
  {"iata": "AMS", "lat": 52.3105, "lon": 4.7683, "cca2": "NL", "region": "Europe", "city": "Amsterdam"},
  {"iata": "NRT", "lat": 35.7720, "lon": 140.3929, "cca2": "JP", "region": "Asia", "city": "Tokyo"},
  {"iata": "SIN", "lat": 1.3644, "lon": 103.9915, "cca2": "SG", "region": "Asia", "city": "Singapore"},
  {"iata": "HKG", "lat": 22.3080, "lon": 113.9185, "cca2": "HK", "region": "Asia", "city": "Hong Kong"},
  {"iata": "SYD", "lat": -33.9399, "lon": 151.1753, "cca2": "AU", "region": "Oceania", "city": "Sydney"},
  {"iata": "GRU", "lat": -23.4356, "lon": -46.4731, "cca2": "BR", "region": "South America", "city": "Sao Paulo"}
]
